{
"type": "FeatureCollection",
"name": "bus_stops_v0.3",
"crs": { "type": "name", "properties": { "name": "urn:ogc:def:crs:OGC:1.3:CRS84" } },
"features": [
{ "type": "Feature", "properties": { "stop_id": "bus_1502863554", "stop_name": "铜山中学", "lon": 117.1858911, "lat": 34.2013107 }, "geometry": { "type": "Point", "coordinates": [ 117.1858911, 34.2013107 ] } },
{ "type": "Feature", "properties": { "stop_id": "bus_1502863878", "stop_name": "铜山中学", "lon": 117.1855972, "lat": 34.2014846 }, "geometry": { "type": "Point", "coordinates": [ 117.1855972, 34.2014846 ] } },
{ "type": "Feature", "properties": { "stop_id": "bus_1502888524", "stop_name": "煤建校", "lon": 117.1814264, "lat": 34.202044 }, "geometry": { "type": "Point", "coordinates": [ 117.1814264, 34.202044 ] } },
{ "type": "Feature", "properties": { "stop_id": "bus_1502888644", "stop_name": "煤建校", "lon": 117.1817349, "lat": 34.202257 }, "geometry": { "type": "Point", "coordinates": [ 117.1817349, 34.202257 ] } },
{ "type": "Feature", "properties": { "stop_id": "bus_2687991439", "stop_name": "徐州老火车站", "lon": 117.198898, "lat": 34.2688903 }, "geometry": { "type": "Point", "coordinates": [ 117.198898, 34.2688903 ] } },
{ "type": "Feature", "properties": { "stop_id": "bus_2696258896", "stop_name": "孟家沟村南", "lon": 117.2327806, "lat": 34.3134321 }, "geometry": { "type": "Point", "coordinates": [ 117.2327806, 34.3134321 ] } },
{ "type": "Feature", "properties": { "stop_id": "bus_3389441610", "stop_name": "公交站", "lon": 117.1949616, "lat": 34.2677685 }, "geometry": { "type": "Point", "coordinates": [ 117.1949616, 34.2677685 ] } },
{ "type": "Feature", "properties": { "stop_id": "bus_3390912189", "stop_name": "公交站", "lon": 117.194986, "lat": 34.2677784 }, "geometry": { "type": "Point", "coordinates": [ 117.194986, 34.2677784 ] } },
{ "type": "Feature", "properties": { "stop_id": "bus_3392380111", "stop_name": "火车东站", "lon": 117.1985046, "lat": 34.2688607 }, "geometry": { "type": "Point", "coordinates": [ 117.1985046, 34.2688607 ] } },
{ "type": "Feature", "properties": { "stop_id": "bus_4193053684", "stop_name": "公交站", "lon": 117.2968217, "lat": 34.2668009 }, "geometry": { "type": "Point", "coordinates": [ 117.2968217, 34.2668009 ] } },
{ "type": "Feature", "properties": { "stop_id": "bus_4193053685", "stop_name": "公交站", "lon": 117.2959517, "lat": 34.2700733 }, "geometry": { "type": "Point", "coordinates": [ 117.2959517, 34.2700733 ] } },
{ "type": "Feature", "properties": { "stop_id": "bus_4535620501", "stop_name": "矿大南湖校区北门", "lon": 117.1448066, "lat": 34.2212366 }, "geometry": { "type": "Point", "coordinates": [ 117.1448066, 34.2212366 ] } },
{ "type": "Feature", "properties": { "stop_id": "bus_4551857989", "stop_name": "文化宫", "lon": 117.1913645, "lat": 34.265125 }, "geometry": { "type": "Point", "coordinates": [ 117.1913645, 34.265125 ] } },
{ "type": "Feature", "properties": { "stop_id": "bus_4551857990", "stop_name": "供销大厦华联大厦", "lon": 117.184315, "lat": 34.2649989 }, "geometry": { "type": "Point", "coordinates": [ 117.184315, 34.2649989 ] } },
{ "type": "Feature", "properties": { "stop_id": "bus_4551857991", "stop_name": "古彭大厦", "lon": 117.1775141, "lat": 34.2648851 }, "geometry": { "type": "Point", "coordinates": [ 117.1775141, 34.2648851 ] } },
{ "type": "Feature", "properties": { "stop_id": "bus_4551857992", "stop_name": "市立二院", "lon": 117.1721831, "lat": 34.2647991 }, "geometry": { "type": "Point", "coordinates": [ 117.1721831, 34.2647991 ] } },
{ "type": "Feature", "properties": { "stop_id": "bus_4551857993", "stop_name": "工人医院", "lon": 117.1660699, "lat": 34.2647006 }, "geometry": { "type": "Point", "coordinates": [ 117.1660699, 34.2647006 ] } },
{ "type": "Feature", "properties": { "stop_id": "bus_4551857994", "stop_name": "公交站", "lon": 117.1598582, "lat": 34.2646005 }, "geometry": { "type": "Point", "coordinates": [ 117.1598582, 34.2646005 ] } },
{ "type": "Feature", "properties": { "stop_id": "bus_4551857995", "stop_name": "段庄", "lon": 117.1546342, "lat": 34.2642886 }, "geometry": { "type": "Point", "coordinates": [ 117.1546342, 34.2642886 ] } },
{ "type": "Feature", "properties": { "stop_id": "bus_4551857996", "stop_name": "段庄", "lon": 117.1537692, "lat": 34.2638054 }, "geometry": { "type": "Point", "coordinates": [ 117.1537692, 34.2638054 ] } },
{ "type": "Feature", "properties": { "stop_id": "bus_4551857997", "stop_name": "公交站", "lon": 117.1599042, "lat": 34.2644756 }, "geometry": { "type": "Point", "coordinates": [ 117.1599042, 34.2644756 ] } },
{ "type": "Feature", "properties": { "stop_id": "bus_4551857998", "stop_name": "市立二院", "lon": 117.1721753, "lat": 34.2646866 }, "geometry": { "type": "Point", "coordinates": [ 117.1721753, 34.2646866 ] } },
{ "type": "Feature", "properties": { "stop_id": "bus_4551857999", "stop_name": "浦发银行", "lon": 117.1760567, "lat": 34.2647533 }, "geometry": { "type": "Point", "coordinates": [ 117.1760567, 34.2647533 ] } },
{ "type": "Feature", "properties": { "stop_id": "bus_4551858000", "stop_name": "古彭大厦", "lon": 117.1843162, "lat": 34.2648845 }, "geometry": { "type": "Point", "coordinates": [ 117.1843162, 34.2648845 ] } },
{ "type": "Feature", "properties": { "stop_id": "bus_4551858001", "stop_name": "文化宫", "lon": 117.191705, "lat": 34.2650812 }, "geometry": { "type": "Point", "coordinates": [ 117.191705, 34.2650812 ] } },
{ "type": "Feature", "properties": { "stop_id": "bus_4578571165", "stop_name": "公交站", "lon": 117.1767338, "lat": 34.2500738 }, "geometry": { "type": "Point", "coordinates": [ 117.1767338, 34.2500738 ] } },
{ "type": "Feature", "properties": { "stop_id": "bus_4578571167", "stop_name": "徐州市中医院", "lon": 117.1796479, "lat": 34.2537667 }, "geometry": { "type": "Point", "coordinates": [ 117.1796479, 34.2537667 ] } },
{ "type": "Feature", "properties": { "stop_id": "bus_4607424994", "stop_name": "徐州", "lon": 117.1998845, "lat": 34.2689461 }, "geometry": { "type": "Point", "coordinates": [ 117.1998845, 34.2689461 ] } },
{ "type": "Feature", "properties": { "stop_id": "bus_4607424996", "stop_name": "响山路", "lon": 117.2053103, "lat": 34.2741399 }, "geometry": { "type": "Point", "coordinates": [ 117.2053103, 34.2741399 ] } },
{ "type": "Feature", "properties": { "stop_id": "bus_4607424997", "stop_name": "公交站", "lon": 117.2112307, "lat": 34.2624637 }, "geometry": { "type": "Point", "coordinates": [ 117.2112307, 34.2624637 ] } },
{ "type": "Feature", "properties": { "stop_id": "bus_4607425003", "stop_name": "大庙", "lon": 117.3523514, "lat": 34.2852416 }, "geometry": { "type": "Point", "coordinates": [ 117.3523514, 34.2852416 ] } },
{ "type": "Feature", "properties": { "stop_id": "bus_4607425009", "stop_name": "新夏路口", "lon": 117.4436558, "lat": 34.4232997 }, "geometry": { "type": "Point", "coordinates": [ 117.4436558, 34.4232997 ] } },
{ "type": "Feature", "properties": { "stop_id": "bus_4607425020", "stop_name": "夏桥公园", "lon": 117.4380931, "lat": 34.423843 }, "geometry": { "type": "Point", "coordinates": [ 117.4380931, 34.423843 ] } },
{ "type": "Feature", "properties": { "stop_id": "bus_4607425057", "stop_name": "老站", "lon": 117.4458982, "lat": 34.4481691 }, "geometry": { "type": "Point", "coordinates": [ 117.4458982, 34.4481691 ] } },
{ "type": "Feature", "properties": { "stop_id": "bus_4607425075", "stop_name": "电影院", "lon": 117.4453493, "lat": 34.4456209 }, "geometry": { "type": "Point", "coordinates": [ 117.4453493, 34.4456209 ] } },
{ "type": "Feature", "properties": { "stop_id": "bus_4607425076", "stop_name": "公交站", "lon": 117.4455174, "lat": 34.4419499 }, "geometry": { "type": "Point", "coordinates": [ 117.4455174, 34.4419499 ] } },
{ "type": "Feature", "properties": { "stop_id": "bus_5368802104", "stop_name": "血液中心站", "lon": 117.1695019, "lat": 34.2546508 }, "geometry": { "type": "Point", "coordinates": [ 117.1695019, 34.2546508 ] } },
{ "type": "Feature", "properties": { "stop_id": "bus_5368802105", "stop_name": "血液中心站", "lon": 117.1692797, "lat": 34.2554135 }, "geometry": { "type": "Point", "coordinates": [ 117.1692797, 34.2554135 ] } },
{ "type": "Feature", "properties": { "stop_id": "bus_8889479283", "stop_name": "铜山农商行", "lon": 117.1786432, "lat": 34.1794717 }, "geometry": { "type": "Point", "coordinates": [ 117.1786432, 34.1794717 ] } },
{ "type": "Feature", "properties": { "stop_id": "bus_8889479284", "stop_name": "铜山电厂", "lon": 117.1805492, "lat": 34.1852867 }, "geometry": { "type": "Point", "coordinates": [ 117.1805492, 34.1852867 ] } },
{ "type": "Feature", "properties": { "stop_id": "bus_8889479285", "stop_name": "铜山农商行", "lon": 117.1785611, "lat": 34.1782224 }, "geometry": { "type": "Point", "coordinates": [ 117.1785611, 34.1782224 ] } },
{ "type": "Feature", "properties": { "stop_id": "bus_8889479286", "stop_name": "铜山二堡", "lon": 117.1772183, "lat": 34.1750985 }, "geometry": { "type": "Point", "coordinates": [ 117.1772183, 34.1750985 ] } },
{ "type": "Feature", "properties": { "stop_id": "bus_8889479287", "stop_name": "铜山二堡", "lon": 117.1774157, "lat": 34.1747327 }, "geometry": { "type": "Point", "coordinates": [ 117.1774157, 34.1747327 ] } },
{ "type": "Feature", "properties": { "stop_id": "bus_8889479288", "stop_name": "铜山电厂", "lon": 117.1808338, "lat": 34.1851443 }, "geometry": { "type": "Point", "coordinates": [ 117.1808338, 34.1851443 ] } },
{ "type": "Feature", "properties": { "stop_id": "bus_8889488694", "stop_name": "拖龙山公园", "lon": 117.2507062, "lat": 34.2131264 }, "geometry": { "type": "Point", "coordinates": [ 117.2507062, 34.2131264 ] } },
{ "type": "Feature", "properties": { "stop_id": "bus_8889488695", "stop_name": "拖龙山公园", "lon": 117.2488594, "lat": 34.2134509 }, "geometry": { "type": "Point", "coordinates": [ 117.2488594, 34.2134509 ] } },
{ "type": "Feature", "properties": { "stop_id": "bus_8889490951", "stop_name": "明正路", "lon": 117.2923146, "lat": 34.2082664 }, "geometry": { "type": "Point", "coordinates": [ 117.2923146, 34.2082664 ] } },
{ "type": "Feature", "properties": { "stop_id": "bus_8889490952", "stop_name": "彭祖大道", "lon": 117.256008, "lat": 34.2123029 }, "geometry": { "type": "Point", "coordinates": [ 117.256008, 34.2123029 ] } },
{ "type": "Feature", "properties": { "stop_id": "bus_8889490953", "stop_name": "大龙湖", "lon": 117.2647542, "lat": 34.2094227 }, "geometry": { "type": "Point", "coordinates": [ 117.2647542, 34.2094227 ] } },
{ "type": "Feature", "properties": { "stop_id": "bus_8889490954", "stop_name": "秦郡路", "lon": 117.2695747, "lat": 34.2083266 }, "geometry": { "type": "Point", "coordinates": [ 117.2695747, 34.2083266 ] } },
{ "type": "Feature", "properties": { "stop_id": "bus_8889490955", "stop_name": "行政中心", "lon": 117.2731208, "lat": 34.20868 }, "geometry": { "type": "Point", "coordinates": [ 117.2731208, 34.20868 ] } },
{ "type": "Feature", "properties": { "stop_id": "bus_8889490956", "stop_name": "元和路", "lon": 117.281219, "lat": 34.2086213 }, "geometry": { "type": "Point", "coordinates": [ 117.281219, 34.2086213 ] } },
{ "type": "Feature", "properties": { "stop_id": "bus_8889490957", "stop_name": "秦郡路", "lon": 117.2674629, "lat": 34.2090057 }, "geometry": { "type": "Point", "coordinates": [ 117.2674629, 34.2090057 ] } },
{ "type": "Feature", "properties": { "stop_id": "bus_8889490958", "stop_name": "行政中心", "lon": 117.2768766, "lat": 34.2082848 }, "geometry": { "type": "Point", "coordinates": [ 117.2768766, 34.2082848 ] } },
{ "type": "Feature", "properties": { "stop_id": "bus_8889490959", "stop_name": "明正路", "lon": 117.2898724, "lat": 34.2086014 }, "geometry": { "type": "Point", "coordinates": [ 117.2898724, 34.2086014 ] } },
{ "type": "Feature", "properties": { "stop_id": "bus_8889490960", "stop_name": "元和路", "lon": 117.2828315, "lat": 34.2082825 }, "geometry": { "type": "Point", "coordinates": [ 117.2828315, 34.2082825 ] } },
{ "type": "Feature", "properties": { "stop_id": "bus_8889490961", "stop_name": "大龙湖", "lon": 117.2626893, "lat": 34.2103727 }, "geometry": { "type": "Point", "coordinates": [ 117.2626893, 34.2103727 ] } },
{ "type": "Feature", "properties": { "stop_id": "bus_9696771544", "stop_name": "公交站", "lon": 117.1805262, "lat": 34.2001228 }, "geometry": { "type": "Point", "coordinates": [ 117.1805262, 34.2001228 ] } },
{ "type": "Feature", "properties": { "stop_id": "bus_9696771545", "stop_name": "公交站", "lon": 117.1805784, "lat": 34.1985916 }, "geometry": { "type": "Point", "coordinates": [ 117.1805784, 34.1985916 ] } },
{ "type": "Feature", "properties": { "stop_id": "bus_11155288750", "stop_name": "人才家园公交首末站", "lon": 117.2949897, "lat": 34.2086007 }, "geometry": { "type": "Point", "coordinates": [ 117.2949897, 34.2086007 ] } },
{ "type": "Feature", "properties": { "stop_id": "bus_11155288751", "stop_name": "人才家园公交首末站", "lon": 117.2923805, "lat": 34.2082652 }, "geometry": { "type": "Point", "coordinates": [ 117.2923805, 34.2082652 ] } },
{ "type": "Feature", "properties": { "stop_id": "bus_11155288752", "stop_name": "御景湾小区", "lon": 117.2231316, "lat": 34.2148385 }, "geometry": { "type": "Point", "coordinates": [ 117.2231316, 34.2148385 ] } },
{ "type": "Feature", "properties": { "stop_id": "bus_11155288753", "stop_name": "御景湾小区", "lon": 117.2237868, "lat": 34.2142556 }, "geometry": { "type": "Point", "coordinates": [ 117.2237868, 34.2142556 ] } },
{ "type": "Feature", "properties": { "stop_id": "bus_11155288754", "stop_name": "百果园地铁站", "lon": 117.2201133, "lat": 34.215174 }, "geometry": { "type": "Point", "coordinates": [ 117.2201133, 34.215174 ] } },
{ "type": "Feature", "properties": { "stop_id": "bus_11155288755", "stop_name": "百果园地铁站", "lon": 117.2194454, "lat": 34.2147293 }, "geometry": { "type": "Point", "coordinates": [ 117.2194454, 34.2147293 ] } },
{ "type": "Feature", "properties": { "stop_id": "bus_11155288756", "stop_name": "三环南路（长安路）", "lon": 117.2111349, "lat": 34.2156725 }, "geometry": { "type": "Point", "coordinates": [ 117.2111349, 34.2156725 ] } },
{ "type": "Feature", "properties": { "stop_id": "bus_11155288757", "stop_name": "三环南路（长安路）", "lon": 117.2133166, "lat": 34.2151615 }, "geometry": { "type": "Point", "coordinates": [ 117.2133166, 34.2151615 ] } },
{ "type": "Feature", "properties": { "stop_id": "bus_11155288758", "stop_name": "风华园", "lon": 117.180097, "lat": 34.2155406 }, "geometry": { "type": "Point", "coordinates": [ 117.180097, 34.2155406 ] } },
{ "type": "Feature", "properties": { "stop_id": "bus_11155288759", "stop_name": "风华园", "lon": 117.181563, "lat": 34.2150652 }, "geometry": { "type": "Point", "coordinates": [ 117.181563, 34.2150652 ] } },
{ "type": "Feature", "properties": { "stop_id": "bus_11155288760", "stop_name": "双山", "lon": 117.1698209, "lat": 34.2168839 }, "geometry": { "type": "Point", "coordinates": [ 117.1698209, 34.2168839 ] } },
{ "type": "Feature", "properties": { "stop_id": "bus_11155288761", "stop_name": "双山", "lon": 117.1710355, "lat": 34.2159449 }, "geometry": { "type": "Point", "coordinates": [ 117.1710355, 34.2159449 ] } },
{ "type": "Feature", "properties": { "stop_id": "bus_11155288762", "stop_name": "泉山法院", "lon": 117.1662063, "lat": 34.2182121 }, "geometry": { "type": "Point", "coordinates": [ 117.1662063, 34.2182121 ] } },
{ "type": "Feature", "properties": { "stop_id": "bus_11155288763", "stop_name": "泉山法院", "lon": 117.1652536, "lat": 34.2179291 }, "geometry": { "type": "Point", "coordinates": [ 117.1652536, 34.2179291 ] } },
{ "type": "Feature", "properties": { "stop_id": "bus_11155288764", "stop_name": "泉山公园", "lon": 117.1604943, "lat": 34.2201638 }, "geometry": { "type": "Point", "coordinates": [ 117.1604943, 34.2201638 ] } },
{ "type": "Feature", "properties": { "stop_id": "bus_11155288765", "stop_name": "泉山公园", "lon": 117.1609792, "lat": 34.2193547 }, "geometry": { "type": "Point", "coordinates": [ 117.1609792, 34.2193547 ] } },
{ "type": "Feature", "properties": { "stop_id": "bus_11155288766", "stop_name": "矿大南湖校区北门", "lon": 117.1450641, "lat": 34.2216347 }, "geometry": { "type": "Point", "coordinates": [ 117.1450641, 34.2216347 ] } },
{ "type": "Feature", "properties": { "stop_id": "bus_11155288767", "stop_name": "海玥南山", "lon": 117.1267414, "lat": 34.2301064 }, "geometry": { "type": "Point", "coordinates": [ 117.1267414, 34.2301064 ] } },
{ "type": "Feature", "properties": { "stop_id": "bus_11155288768", "stop_name": "海玥南山", "lon": 117.127266, "lat": 34.228892 }, "geometry": { "type": "Point", "coordinates": [ 117.127266, 34.228892 ] } },
{ "type": "Feature", "properties": { "stop_id": "bus_11155288769", "stop_name": "万悦城", "lon": 117.12184, "lat": 34.2344878 }, "geometry": { "type": "Point", "coordinates": [ 117.12184, 34.2344878 ] } },
{ "type": "Feature", "properties": { "stop_id": "bus_11155288770", "stop_name": "万悦城", "lon": 117.1212248, "lat": 34.2342463 }, "geometry": { "type": "Point", "coordinates": [ 117.1212248, 34.2342463 ] } },
{ "type": "Feature", "properties": { "stop_id": "bus_11155288771", "stop_name": "杏山花园", "lon": 117.119704, "lat": 34.2399372 }, "geometry": { "type": "Point", "coordinates": [ 117.119704, 34.2399372 ] } },
{ "type": "Feature", "properties": { "stop_id": "bus_11155288772", "stop_name": "杏山花园", "lon": 117.1203962, "lat": 34.2399667 }, "geometry": { "type": "Point", "coordinates": [ 117.1203962, 34.2399667 ] } },
{ "type": "Feature", "properties": { "stop_id": "bus_11155288773", "stop_name": "三环南路（开元路）", "lon": 117.1209405, "lat": 34.2443556 }, "geometry": { "type": "Point", "coordinates": [ 117.1209405, 34.2443556 ] } },
{ "type": "Feature", "properties": { "stop_id": "bus_11155288774", "stop_name": "三环南路（开元路）", "lon": 117.1201212, "lat": 34.243539 }, "geometry": { "type": "Point", "coordinates": [ 117.1201212, 34.243539 ] } },
{ "type": "Feature", "properties": { "stop_id": "bus_11155288775", "stop_name": "矿山医院", "lon": 117.1315167, "lat": 34.2547665 }, "geometry": { "type": "Point", "coordinates": [ 117.1315167, 34.2547665 ] } },
{ "type": "Feature", "properties": { "stop_id": "bus_11155288776", "stop_name": "矿山医院", "lon": 117.1304831, "lat": 34.2540461 }, "geometry": { "type": "Point", "coordinates": [ 117.1304831, 34.2540461 ] } },
{ "type": "Feature", "properties": { "stop_id": "bus_11155288777", "stop_name": "西苑西口", "lon": 117.1323329, "lat": 34.2731718 }, "geometry": { "type": "Point", "coordinates": [ 117.1323329, 34.2731718 ] } },
{ "type": "Feature", "properties": { "stop_id": "bus_11155288778", "stop_name": "西苑西口", "lon": 117.133522, "lat": 34.2760271 }, "geometry": { "type": "Point", "coordinates": [ 117.133522, 34.2760271 ] } },
{ "type": "Feature", "properties": { "stop_id": "bus_11155288779", "stop_name": "苏山头", "lon": 117.1259632, "lat": 34.288139 }, "geometry": { "type": "Point", "coordinates": [ 117.1259632, 34.288139 ] } },
{ "type": "Feature", "properties": { "stop_id": "bus_11155288780", "stop_name": "苏山头", "lon": 117.125587, "lat": 34.2895865 }, "geometry": { "type": "Point", "coordinates": [ 117.125587, 34.2895865 ] } },
{ "type": "Feature", "properties": { "stop_id": "bus_11155288781", "stop_name": "孤山村", "lon": 117.1179386, "lat": 34.3045485 }, "geometry": { "type": "Point", "coordinates": [ 117.1179386, 34.3045485 ] } },
{ "type": "Feature", "properties": { "stop_id": "bus_11155288782", "stop_name": "孤山村", "lon": 117.117737, "lat": 34.3037427 }, "geometry": { "type": "Point", "coordinates": [ 117.117737, 34.3037427 ] } },
{ "type": "Feature", "properties": { "stop_id": "bus_11155288783", "stop_name": "三环北路（平山北路）", "lon": 117.1348632, "lat": 34.3164692 }, "geometry": { "type": "Point", "coordinates": [ 117.1348632, 34.3164692 ] } },
{ "type": "Feature", "properties": { "stop_id": "bus_11155288784", "stop_name": "三环北路（平山北路）", "lon": 117.1364835, "lat": 34.3176435 }, "geometry": { "type": "Point", "coordinates": [ 117.1364835, 34.3176435 ] } },
{ "type": "Feature", "properties": { "stop_id": "bus_11155288785", "stop_name": "九里新苑公交首末站", "lon": 117.1494317, "lat": 34.3229725 }, "geometry": { "type": "Point", "coordinates": [ 117.1494317, 34.3229725 ] } }
]
}
